[
  {
    "area_code": "770",
    "city": "Acworth",
    "city_state_zip": "Acworth GA 30101",
    "location": {
      "lat": 34.03536,
      "lon": -84.68494
    },
    "name": "Acworth",
    "phone": "(770)917-8425",
    "search_address": "3355 Cobb Pkwy Acworth GA 30101",
    "state": "GA",
    "store_num": 1,
    "street": "3355 Cobb Pkwy",
    "zip": "30101"
  },
  {
    "area_code": "229",
    "city": "Albany",
    "city_state_zip": "Albany GA 31707",
    "location": {
      "lat": 31.61642,
      "lon": -84.20703
    },
    "name": "Albany, GA",
    "phone": "(229)446-2010",
    "search_address": "1219 Westover Blvd Albany GA 31707",
    "state": "GA",
    "store_num": 2,
    "street": "1219 Westover Blvd",
    "zip": "31707"
  },
  {
    "area_code": "678",
    "city": "Alpharetta",
    "city_state_zip": "Alpharetta GA 30004",
    "location": {
      "lat": 34.09086,
      "lon": -84.2738
    },
    "name": "Alpharetta",
    "phone": "(678)339-0157",
    "search_address": "5300 Windward Pkwy Alpharetta GA 30004",
    "state": "GA",
    "store_num": 3,
    "street": "5300 Windward Pkwy",
    "zip": "30004"
  },
  {
    "area_code": "706",
    "city": "Athens",
    "city_state_zip": "Athens GA 30606",
    "location": {
      "lat": 33.91815,
      "lon": -83.4271
    },
    "name": "Athens",
    "phone": "(706)353-6079",
    "search_address": "1740 Epps Bridge Rd Athens GA 30606",
    "state": "GA",
    "store_num": 4,
    "street": "1740 Epps Bridge Rd",
    "zip": "30606"
  },
  {
    "area_code": "706",
    "city": "Augusta",
    "city_state_zip": "Augusta GA 30907",
    "location": {
      "lat": 33.50184,
      "lon": -82.0906
    },
    "name": "Augusta",
    "phone": "(706)650-7662",
    "search_address": "499 Bobby Jones Expy Ste B Augusta GA 30907",
    "state": "GA",
    "store_num": 5,
    "street": "499 Bobby Jones Expy Ste B",
    "zip": "30907"
  },
  {
    "area_code": "706",
    "city": "Evans",
    "city_state_zip": "Evans GA 30809",
    "location": {
      "lat": 33.5361,
      "lon": -82.13173
    },
    "name": "Augusta North",
    "phone": "(706)854-7832",
    "search_address": "520 N Belair Road Evans GA 30809",
    "state": "GA",
    "store_num": 6,
    "street": "520 N Belair Road",
    "zip": "30809"
  },
  {
    "area_code": "770",
    "city": "Austell",
    "city_state_zip": "Austell GA 30106",
    "location": {
      "lat": 33.85399,
      "lon": -84.60835
    },
    "name": "Austell",
    "phone": "(770)438-9678",
    "search_address": "1200 E W Connector Sw Austell GA 30106",
    "state": "GA",
    "store_num": 7,
    "street": "1200 E W Connector Sw",
    "zip": "30106"
  },
  {
    "area_code": "229",
    "city": "Bainbridge",
    "city_state_zip": "Bainbridge GA 39819",
    "location": {
      "lat": 30.88512,
      "lon": -84.56756
    },
    "name": "Bainbridge",
    "phone": "(229)246-1804",
    "search_address": "1414 Tallahassee Hwy Bainbridge GA 39819",
    "state": "GA",
    "store_num": 8,
    "street": "1414 Tallahassee Hwy",
    "zip": "39819"
  },
  {
    "area_code": "706",
    "city": "Blairsville",
    "city_state_zip": "Blairsville GA 30512",
    "location": {
      "lat": 34.87836,
      "lon": -83.95941
    },
    "name": "Blairsville",
    "phone": "(706)781-1865",
    "search_address": "17 Highway 515 Blairsville GA 30512",
    "state": "GA",
    "store_num": 9,
    "street": "17 Highway 515",
    "zip": "30512"
  },
  {
    "area_code": "706",
    "city": "Blue Ridge",
    "city_state_zip": "Blue Ridge GA 30513",
    "location": {
      "lat": 34.87754,
      "lon": -84.32243
    },
    "name": "Blue Ridge",
    "phone": "(706)258-3555",
    "search_address": "10012 Blueridge Drive Blue Ridge GA 30513",
    "state": "GA",
    "store_num": 10,
    "street": "10012 Blueridge Drive",
    "zip": "30513"
  },
  {
    "area_code": "770",
    "city": "Suwanee",
    "city_state_zip": "Suwanee GA 30024",
    "location": {
      "lat": 34.07801,
      "lon": -84.1627
    },
    "name": "Brookwood",
    "phone": "(770)887-1256",
    "search_address": "2635 Peachtree Pkwy Suwanee GA 30024",
    "state": "GA",
    "store_num": 11,
    "street": "2635 Peachtree Pkwy",
    "zip": "30024"
  },
  {
    "area_code": "912",
    "city": "Brunswick",
    "city_state_zip": "Brunswick GA 31520",
    "location": {
      "lat": 31.21139,
      "lon": -81.49287
    },
    "name": "Brunswick",
    "phone": "(912)264-2025",
    "search_address": "200 Altama Connector Brunswick GA 31520",
    "state": "GA",
    "store_num": 12,
    "street": "200 Altama Connector",
    "zip": "31520"
  },
  {
    "area_code": "404",
    "city": "Atlanta",
    "city_state_zip": "Atlanta GA 30324",
    "location": {
      "lat": 33.82454,
      "lon": -84.36545
    },
    "name": "Buckhead",
    "phone": "(404)841-5608",
    "search_address": "2525 Piedmont Road Ne Atlanta GA 30324",
    "state": "GA",
    "store_num": 13,
    "street": "2525 Piedmont Road Ne",
    "zip": "30324"
  },
  {
    "area_code": "770",
    "city": "Buford",
    "city_state_zip": "Buford GA 30518",
    "location": {
      "lat": 34.09062,
      "lon": -84.00189
    },
    "name": "Buford",
    "phone": "(770)831-5005",
    "search_address": "4120 Highway 20 Buford GA 30518",
    "state": "GA",
    "store_num": 14,
    "street": "4120 Highway 20",
    "zip": "30518"
  },
  {
    "area_code": "706",
    "city": "Calhoun",
    "city_state_zip": "Calhoun GA 30701",
    "location": {
      "lat": 34.47477,
      "lon": -84.92061
    },
    "name": "Calhoun",
    "phone": "(706)629-2509",
    "search_address": "1280 Curtis Pkwy Calhoun GA 30701",
    "state": "GA",
    "store_num": 15,
    "street": "1280 Curtis Pkwy",
    "zip": "30701"
  },
  {
    "area_code": "770",
    "city": "Canton",
    "city_state_zip": "Canton GA 30114",
    "location": {
      "lat": 34.25398,
      "lon": -84.47333
    },
    "name": "Canton, GA",
    "phone": "(770)720-8910",
    "search_address": "2200 Riverstone Blvd Canton GA 30114",
    "state": "GA",
    "store_num": 16,
    "street": "2200 Riverstone Blvd",
    "zip": "30114"
  },
  {
    "area_code": "770",
    "city": "Carrollton",
    "city_state_zip": "Carrollton GA 30117",
    "location": {
      "lat": 33.55266,
      "lon": -85.07176
    },
    "name": "Carrollton, GA",
    "phone": "(770)832-1796",
    "search_address": "1332 South Park St Carrollton GA 30117",
    "state": "GA",
    "store_num": 17,
    "street": "1332 South Park St",
    "zip": "30117"
  },
  {
    "area_code": "770",
    "city": "Cartersville",
    "city_state_zip": "Cartersville GA 30120",
    "location": {
      "lat": 34.18559,
      "lon": -84.78772
    },
    "name": "Cartersville",
    "phone": "(770)606-0298",
    "search_address": "100 Gentilly Blvd Cartersville GA 30120",
    "state": "GA",
    "store_num": 18,
    "street": "100 Gentilly Blvd",
    "zip": "30120"
  },
  {
    "area_code": "404",
    "city": "Atlanta",
    "city_state_zip": "Atlanta GA 30331",
    "location": {
      "lat": 33.72704,
      "lon": -84.5039
    },
    "name": "Cascade",
    "phone": "(404)691-2077",
    "search_address": "1032 Research Center Atlanta Drive Atlanta GA 30331",
    "state": "GA",
    "store_num": 19,
    "street": "1032 Research Center Atlanta Drive",
    "zip": "30331"
  },
  {
    "area_code": "678",
    "city": "Cedartown",
    "city_state_zip": "Cedartown GA 30125",
    "location": {
      "lat": 34.04491,
      "lon": -85.23218
    },
    "name": "Cedartown,GA",
    "phone": "(678)246-0107",
    "search_address": "1500 Rome Highway Cedartown GA 30125",
    "state": "GA",
    "store_num": 20,
    "street": "1500 Rome Highway",
    "zip": "30125"
  },
  {
    "area_code": "706",
    "city": "Clayton",
    "city_state_zip": "Clayton GA 30525",
    "location": {
      "lat": 34.85599,
      "lon": -83.40614
    },
    "name": "Clayton,GA",
    "phone": "(706)782-4664",
    "search_address": "1551 Hwy 441 South Clayton GA 30525",
    "state": "GA",
    "store_num": 21,
    "street": "1551 Hwy 441 South",
    "zip": "30525"
  },
  {
    "area_code": "706",
    "city": "Columbus",
    "city_state_zip": "Columbus GA 31909",
    "location": {
      "lat": 32.52469,
      "lon": -84.94944
    },
    "name": "Columbus",
    "phone": "(706)322-9240",
    "search_address": "2891 Sowega Dr Columbus GA 31909",
    "state": "GA",
    "store_num": 22,
    "street": "2891 Sowega Dr",
    "zip": "31909"
  },
  {
    "area_code": "706",
    "city": "Commerce",
    "city_state_zip": "Commerce GA 30529",
    "location": {
      "lat": 34.25515,
      "lon": -83.46867
    },
    "name": "Commerce,GA",
    "phone": "(706)335-5883",
    "search_address": "230 Steven B Tanger Blvd Commerce GA 30529",
    "state": "GA",
    "store_num": 23,
    "street": "230 Steven B Tanger Blvd",
    "zip": "30529"
  },
  {
    "area_code": "770",
    "city": "Covington",
    "city_state_zip": "Covington GA 30014",
    "location": {
      "lat": 33.60331,
      "lon": -83.86699
    },
    "name": "Covington,GA",
    "phone": "(770)784-0197",
    "search_address": "13171 Hwy 142 Nw Covington GA 30014",
    "state": "GA",
    "store_num": 24,
    "street": "13171 Hwy 142 Nw",
    "zip": "30014"
  },
  {
    "area_code": "770",
    "city": "Atlanta",
    "city_state_zip": "Atlanta GA 30339",
    "location": {
      "lat": 33.86234,
      "lon": -84.47627
    },
    "name": "Cumberland",
    "phone": "(770)432-9930",
    "search_address": "2450 Cumberland Pkwy Atlanta GA 30339",
    "state": "GA",
    "store_num": 25,
    "street": "2450 Cumberland Pkwy",
    "zip": "30339"
  },
  {
    "area_code": "770",
    "city": "Cumming",
    "city_state_zip": "Cumming GA 30041",
    "location": {
      "lat": 34.17998,
      "lon": -84.13001
    },
    "name": "Cumming",
    "phone": "(770)888-8135",
    "search_address": "1000 Market Pl Blvd Cumming GA 30041",
    "state": "GA",
    "store_num": 26,
    "street": "1000 Market Pl Blvd",
    "zip": "30041"
  },
  {
    "area_code": "706",
    "city": "Dahlonega",
    "city_state_zip": "Dahlonega GA 30533",
    "location": {
      "lat": 34.47246,
      "lon": -83.96779
    },
    "name": "Dahlone, GA",
    "phone": "(706)867-9618",
    "search_address": "140 Maxwell Lane Dahlonega GA 30533",
    "state": "GA",
    "store_num": 27,
    "street": "140 Maxwell Lane",
    "zip": "30533"
  },
  {
    "area_code": "706",
    "city": "Dalton",
    "city_state_zip": "Dalton GA 30720",
    "location": {
      "lat": 34.79021,
      "lon": -84.99934
    },
    "name": "Dalton",
    "phone": "(706)278-8881",
    "search_address": "875 Shugart Rd Dalton GA 30720",
    "state": "GA",
    "store_num": 28,
    "street": "875 Shugart Rd",
    "zip": "30720"
  },
  {
    "area_code": "770",
    "city": "Douglasville",
    "city_state_zip": "Douglasville GA 30135",
    "location": {
      "lat": 33.72341,
      "lon": -84.7664
    },
    "name": "Douglasville",
    "phone": "(770)577-8311",
    "search_address": "7399 Douglas Blvd Douglasville GA 30135",
    "state": "GA",
    "store_num": 29,
    "street": "7399 Douglas Blvd",
    "zip": "30135"
  },
  {
    "area_code": "478",
    "city": "Dublin",
    "city_state_zip": "Dublin GA 31021",
    "location": {
      "lat": 32.54143,
      "lon": -82.94187
    },
    "name": "Dublin",
    "phone": "(478)272-4869",
    "search_address": "1833 Veterans Blvd Dublin GA 31021",
    "state": "GA",
    "store_num": 30,
    "street": "1833 Veterans Blvd",
    "zip": "31021"
  },
  {
    "area_code": "770",
    "city": "Duluth",
    "city_state_zip": "Duluth GA 30096",
    "location": {
      "lat": 33.94879,
      "lon": -84.13182
    },
    "name": "Duluth",
    "phone": "(770)564-2607",
    "search_address": "3755 Shackleford Rd Duluth GA 30096",
    "state": "GA",
    "store_num": 31,
    "street": "3755 Shackleford Rd",
    "zip": "30096"
  },
  {
    "area_code": "912",
    "city": "Savannah",
    "city_state_zip": "Savannah GA 31404",
    "location": {
      "lat": 32.04164,
      "lon": -81.06731
    },
    "name": "East Savannah",
    "phone": "(912)352-3562",
    "search_address": "1901 E Victory Dr Savannah GA 31404",
    "state": "GA",
    "store_num": 32,
    "street": "1901 E Victory Dr",
    "zip": "31404"
  },
  {
    "area_code": "678",
    "city": "Ellenwood",
    "city_state_zip": "Ellenwood GA 30294",
    "location": {
      "lat": 33.6206,
      "lon": -84.23284
    },
    "name": "Ellenwood",
    "phone": "(678)284-9152",
    "search_address": "65 Fairview Road Ellenwood GA 30294",
    "state": "GA",
    "store_num": 33,
    "street": "65 Fairview Road",
    "zip": "30294"
  },
  {
    "area_code": "770",
    "city": "Fayetteville",
    "city_state_zip": "Fayetteville GA 30214",
    "location": {
      "lat": 33.48254,
      "lon": -84.43696
    },
    "name": "Fayetteville, GA",
    "phone": "(770)461-9819",
    "search_address": "103 Pavillion Parkway Fayetteville GA 30214",
    "state": "GA",
    "store_num": 34,
    "street": "103 Pavillion Parkway",
    "zip": "30214"
  },
  {
    "area_code": "770",
    "city": "Flowery Branch",
    "city_state_zip": "Flowery Branch GA 30542",
    "location": {
      "lat": 34.18207,
      "lon": -83.90906
    },
    "name": "Flowery Branch",
    "phone": "(770)965-7877",
    "search_address": "5851 Spout Springs Rd Flowery Branch GA 30542",
    "state": "GA",
    "store_num": 35,
    "street": "5851 Spout Springs Rd",
    "zip": "30542"
  },
  {
    "area_code": "706",
    "city": "Fort Oglethorpe",
    "city_state_zip": "Fort Oglethorpe GA 30742",
    "location": {
      "lat": 34.94766,
      "lon": -85.22983
    },
    "name": "Ft Oglethorpe",
    "phone": "(706)858-0398",
    "search_address": "2055 Battlefield Pkwy Fort Oglethorpe GA 30742",
    "state": "GA",
    "store_num": 36,
    "street": "2055 Battlefield Pkwy",
    "zip": "30742"
  },
  {
    "area_code": "770",
    "city": "Gainesville",
    "city_state_zip": "Gainesville GA 30501",
    "location": {
      "lat": 34.30025,
      "lon": -83.85524
    },
    "name": "Gainesville, GA",
    "phone": "(770)532-7395",
    "search_address": "924 Dawsonville Hwy Gainesville GA 30501",
    "state": "GA",
    "store_num": 37,
    "street": "924 Dawsonville Hwy",
    "zip": "30501"
  },
  {
    "area_code": "706",
    "city": "Greensboro",
    "city_state_zip": "Greensboro GA 30642",
    "location": {
      "lat": 33.54049,
      "lon": -83.20638
    },
    "name": "Greensboro,GA",
    "phone": "(706)454-1623",
    "search_address": "2490 Meadow Crest Greensboro GA 30642",
    "state": "GA",
    "store_num": 38,
    "street": "2490 Meadow Crest",
    "zip": "30642"
  },
  {
    "area_code": "770",
    "city": "Griffin",
    "city_state_zip": "Griffin GA 30223",
    "location": {
      "lat": 33.24902,
      "lon": -84.28938
    },
    "name": "Griffin",
    "phone": "(770)233-9411",
    "search_address": "1435 Highway 16 W Griffin GA 30223",
    "state": "GA",
    "store_num": 39,
    "street": "1435 Highway 16 W",
    "zip": "30223"
  },
  {
    "area_code": "770",
    "city": "Dacula",
    "city_state_zip": "Dacula GA 30019",
    "location": {
      "lat": 34.07289,
      "lon": -83.91344
    },
    "name": "Hamilton Mill",
    "phone": "(770)945-7176",
    "search_address": "2120 Hamilton Creek Pkwy Dacula GA 30019",
    "state": "GA",
    "store_num": 40,
    "street": "2120 Hamilton Creek Pkwy",
    "zip": "30019"
  },
  {
    "area_code": "706",
    "city": "Hartwell",
    "city_state_zip": "Hartwell GA 30643",
    "location": {
      "lat": 34.34798,
      "lon": -82.90158
    },
    "name": "Hartwell,GA",
    "phone": "(706)376-1748",
    "search_address": "1700 Anderson Hwy Hartwell GA 30643",
    "state": "GA",
    "store_num": 41,
    "street": "1700 Anderson Hwy",
    "zip": "30643"
  },
  {
    "area_code": "706",
    "city": "Jasper",
    "city_state_zip": "Jasper GA 30143",
    "location": {
      "lat": 34.46807,
      "lon": -84.46239
    },
    "name": "Jasper, GA",
    "phone": "(706)301-5615",
    "search_address": "205 Bill Wigington Pkwy Jasper GA 30143",
    "state": "GA",
    "store_num": 42,
    "street": "205 Bill Wigington Pkwy",
    "zip": "30143"
  },
  {
    "area_code": "404",
    "city": "Atlanta",
    "city_state_zip": "Atlanta GA 30354",
    "location": {
      "lat": 33.65621,
      "lon": -84.36921
    },
    "name": "Jonesboro",
    "phone": "(404)361-5634",
    "search_address": "3885 Jonesboro Rd Se Atlanta GA 30354",
    "state": "GA",
    "store_num": 43,
    "street": "3885 Jonesboro Rd Se",
    "zip": "30354"
  },
  {
    "area_code": "770",
    "city": "Kennesaw",
    "city_state_zip": "Kennesaw GA 30144",
    "location": {
      "lat": 34.0075,
      "lon": -84.5637
    },
    "name": "Kennesaw",
    "phone": "(770)424-1309",
    "search_address": "449 Roberts Ct Nw Kennesaw GA 30144",
    "state": "GA",
    "store_num": 44,
    "street": "449 Roberts Ct Nw",
    "zip": "30144"
  },
  {
    "area_code": "706",
    "city": "Lagrange",
    "city_state_zip": "Lagrange GA 30241",
    "location": {
      "lat": 33.04011,
      "lon": -84.98099
    },
    "name": "Lagrange",
    "phone": "(706)882-9869",
    "search_address": "1500 Layfayette Pkwy Lagrange GA 30241",
    "state": "GA",
    "store_num": 45,
    "street": "1500 Layfayette Pkwy",
    "zip": "30241"
  },
  {
    "area_code": "770",
    "city": "Lawrenceville",
    "city_state_zip": "Lawrenceville GA 30043",
    "location": {
      "lat": 33.97085,
      "lon": -84.01691
    },
    "name": "Lawrenceville",
    "phone": "(770)338-9830",
    "search_address": "875 Lawrncvile Suwane Rd Lawrenceville GA 30043",
    "state": "GA",
    "store_num": 46,
    "street": "875 Lawrncvile Suwane Rd",
    "zip": "30043"
  },
  {
    "area_code": "770",
    "city": "Lilburn",
    "city_state_zip": "Lilburn GA 30047",
    "location": {
      "lat": 33.83733,
      "lon": -84.07277
    },
    "name": "Lilburn",
    "phone": "(770)985-1077",
    "search_address": "4121 Highway 78 Lilburn GA 30047",
    "state": "GA",
    "store_num": 47,
    "street": "4121 Highway 78",
    "zip": "30047"
  },
  {
    "area_code": "770",
    "city": "Lithia Springs",
    "city_state_zip": "Lithia Springs GA 30122",
    "location": {
      "lat": 33.77914,
      "lon": -84.61123
    },
    "name": "Lithia Spgs-Thornton Rd",
    "phone": "(770)732-0184",
    "search_address": "1000 Thornton Road Lithia Springs GA 30122",
    "state": "GA",
    "store_num": 48,
    "street": "1000 Thornton Road",
    "zip": "30122"
  },
  {
    "area_code": "770",
    "city": "Loganville",
    "city_state_zip": "Loganville GA 30052",
    "location": {
      "lat": 33.84334,
      "lon": -83.91126
    },
    "name": "Loganville",
    "phone": "(770)554-0472",
    "search_address": "4141 Atlanta Highway Loganville GA 30052",
    "state": "GA",
    "store_num": 49,
    "street": "4141 Atlanta Highway",
    "zip": "30052"
  },
  {
    "area_code": "770",
    "city": "Lovejoy",
    "city_state_zip": "Lovejoy GA 30250",
    "location": {
      "lat": 33.4527,
      "lon": -84.32813
    },
    "name": "Lovejoy",
    "phone": "(770)477-9749",
    "search_address": "11075 Tara Boulevard Lovejoy GA 30250",
    "state": "GA",
    "store_num": 50,
    "street": "11075 Tara Boulevard",
    "zip": "30250"
  },
  {
    "area_code": "678",
    "city": "Mcdonough",
    "city_state_zip": "Mcdonough GA 30253",
    "location": {
      "lat": 33.46544,
      "lon": -84.21333
    },
    "name": "Mcdonough",
    "phone": "(678)432-5827",
    "search_address": "1750 Jonesboro Rd Mcdonough GA 30253",
    "state": "GA",
    "store_num": 51,
    "street": "1750 Jonesboro Rd",
    "zip": "30253"
  },
  {
    "area_code": "770",
    "city": "Marietta",
    "city_state_zip": "Marietta GA 30062",
    "location": {
      "lat": 33.98153,
      "lon": -84.43288
    },
    "name": "Merchants Walk",
    "phone": "(770)977-9700",
    "search_address": "4101 Roswell Rd Marietta GA 30062",
    "state": "GA",
    "store_num": 52,
    "street": "4101 Roswell Rd",
    "zip": "30062"
  },
  {
    "area_code": "404",
    "city": "Atlanta",
    "city_state_zip": "Atlanta GA 30308",
    "location": {
      "lat": 33.77408,
      "lon": -84.36586
    },
    "name": "Midtown",
    "phone": "(404)892-8042",
    "search_address": "650 Ponce De Leon Atlanta GA 30308",
    "state": "GA",
    "store_num": 53,
    "street": "650 Ponce De Leon",
    "zip": "30308"
  },
  {
    "area_code": "770",
    "city": "Monroe",
    "city_state_zip": "Monroe GA 30655",
    "location": {
      "lat": 33.80056,
      "lon": -83.74568
    },
    "name": "Monroe, GA",
    "phone": "(770)266-0550",
    "search_address": "2150 West Spring Street Monroe GA 30655",
    "state": "GA",
    "store_num": 54,
    "street": "2150 West Spring Street",
    "zip": "30655"
  },
  {
    "area_code": "770",
    "city": "Morrow",
    "city_state_zip": "Morrow GA 30260",
    "location": {
      "lat": 33.56386,
      "lon": -84.32284
    },
    "name": "Morrow",
    "phone": "(770)478-9990",
    "search_address": "2034 Mt Zion Rd Morrow GA 30260",
    "state": "GA",
    "store_num": 55,
    "street": "2034 Mt Zion Rd",
    "zip": "30260"
  },
  {
    "area_code": "229",
    "city": "Moultrie",
    "city_state_zip": "Moultrie GA 31788",
    "location": {
      "lat": 31.18976,
      "lon": -83.76041
    },
    "name": "Moultrie, GA",
    "phone": "(229)985-6618",
    "search_address": "450 Veterans Pkwy North Moultrie GA 31788",
    "state": "GA",
    "store_num": 56,
    "street": "450 Veterans Pkwy North",
    "zip": "31788"
  },
  {
    "area_code": "770",
    "city": "Duluth",
    "city_state_zip": "Duluth GA 30097",
    "location": {
      "lat": 34.01478,
      "lon": -84.1889
    },
    "name": "N Fulton",
    "phone": "(770)476-4460",
    "search_address": "5950 State Bridge Rd Duluth GA 30097",
    "state": "GA",
    "store_num": 57,
    "street": "5950 State Bridge Rd",
    "zip": "30097"
  },
  {
    "area_code": "770",
    "city": "Lilburn",
    "city_state_zip": "Lilburn GA 30047",
    "location": {
      "lat": 33.90171,
      "lon": -84.11439
    },
    "name": "N Lilburn",
    "phone": "(770)279-0632",
    "search_address": "4028 Lawrenceville Hwy Lilburn GA 30047",
    "state": "GA",
    "store_num": 58,
    "street": "4028 Lawrenceville Hwy",
    "zip": "30047"
  },
  {
    "area_code": "770",
    "city": "Newnan",
    "city_state_zip": "Newnan GA 30265",
    "location": {
      "lat": 33.39705,
      "lon": -84.74234
    },
    "name": "Newnan",
    "phone": "(770)252-1585",
    "search_address": "1100 Bullsboro Dr Newnan GA 30265",
    "state": "GA",
    "store_num": 59,
    "street": "1100 Bullsboro Dr",
    "zip": "30265"
  },
  {
    "area_code": "678",
    "city": "Roswell",
    "city_state_zip": "Roswell GA 30075",
    "location": {
      "lat": 34.05938,
      "lon": -84.3867
    },
    "name": "Nw Roswell/Westwind",
    "phone": "(678)461-0155",
    "search_address": "870 Woodstock Rd Roswell GA 30075",
    "state": "GA",
    "store_num": 60,
    "street": "870 Woodstock Rd",
    "zip": "30075"
  },
  {
    "area_code": "770",
    "city": "Hiram",
    "city_state_zip": "Hiram GA 30141",
    "location": {
      "lat": 33.88761,
      "lon": -84.75128
    },
    "name": "Paulding County",
    "phone": "(770)439-0707",
    "search_address": "145 Depot Drive Hiram GA 30141",
    "state": "GA",
    "store_num": 61,
    "street": "145 Depot Drive",
    "zip": "30141"
  },
  {
    "area_code": "678",
    "city": "Peachtree City",
    "city_state_zip": "Peachtree City GA 30269",
    "location": {
      "lat": 33.42785,
      "lon": -84.55677
    },
    "name": "Peachtree City",
    "phone": "(678)364-0163",
    "search_address": "2715 Hwy 54 W Peachtree City GA 30269",
    "state": "GA",
    "store_num": 62,
    "street": "2715 Hwy 54 W",
    "zip": "30269"
  },
  {
    "area_code": "912",
    "city": "Pooler",
    "city_state_zip": "Pooler GA 31322",
    "location": {
      "lat": 32.14353,
      "lon": -81.24584
    },
    "name": "Pooler",
    "phone": "(912)748-1642",
    "search_address": "190 Pooler Pkwy Pooler GA 31322",
    "state": "GA",
    "store_num": 63,
    "street": "190 Pooler Pkwy",
    "zip": "31322"
  },
  {
    "area_code": "678",
    "city": "Powder Springs",
    "city_state_zip": "Powder Springs GA 30127",
    "location": {
      "lat": 33.86534,
      "lon": -84.67766
    },
    "name": "Powder Springs",
    "phone": "(678)567-1161",
    "search_address": "1062 Richard D Sailors Pkwy Powder Springs GA 30127",
    "state": "GA",
    "store_num": 64,
    "street": "1062 Richard D Sailors Pkwy",
    "zip": "30127"
  },
  {
    "area_code": "770",
    "city": "Riverdale",
    "city_state_zip": "Riverdale GA 30274",
    "location": {
      "lat": 33.55886,
      "lon": -84.41133
    },
    "name": "Riverdale, GA",
    "phone": "(770)907-6027",
    "search_address": "680 Lamar Hutcheson Pkwy Riverdale GA 30274",
    "state": "GA",
    "store_num": 65,
    "street": "680 Lamar Hutcheson Pkwy",
    "zip": "30274"
  },
  {
    "area_code": "706",
    "city": "Rome",
    "city_state_zip": "Rome GA 30161",
    "location": {
      "lat": 34.25408,
      "lon": -85.1624
    },
    "name": "Rome",
    "phone": "(706)236-9030",
    "search_address": "103 Hicks Drive Rome GA 30161",
    "state": "GA",
    "store_num": 66,
    "street": "103 Hicks Drive",
    "zip": "30161"
  },
  {
    "area_code": "770",
    "city": "Roswell",
    "city_state_zip": "Roswell GA 30076",
    "location": {
      "lat": 34.01676,
      "lon": -84.30985
    },
    "name": "Roswell",
    "phone": "(770)518-3071",
    "search_address": "1580 Holcomb Bridge Rd Roswell GA 30076",
    "state": "GA",
    "store_num": 67,
    "street": "1580 Holcomb Bridge Rd",
    "zip": "30076"
  },
  {
    "area_code": "770",
    "city": "Marietta",
    "city_state_zip": "Marietta GA 30066",
    "location": {
      "lat": 34.03851,
      "lon": -84.46288
    },
    "name": "Sandy Plain",
    "phone": "(770)971-2470",
    "search_address": "3605 Sandy Plains Rd Marietta GA 30066",
    "state": "GA",
    "store_num": 68,
    "street": "3605 Sandy Plains Rd",
    "zip": "30066"
  },
  {
    "area_code": "770",
    "city": "Sandy Springs",
    "city_state_zip": "Sandy Springs GA 30328",
    "location": {
      "lat": 33.93004,
      "lon": -84.39507
    },
    "name": "Sandy Springs",
    "phone": "(770)804-8065",
    "search_address": "6400 Ptree-Dnwdy Rd Nw Sandy Springs GA 30328",
    "state": "GA",
    "store_num": 69,
    "street": "6400 Ptree-Dnwdy Rd Nw",
    "zip": "30328"
  },
  {
    "area_code": "770",
    "city": "Canton",
    "city_state_zip": "Canton GA 30115",
    "location": {
      "lat": 34.1485,
      "lon": -84.51289
    },
    "name": "Sixes Road",
    "phone": "(770)928-1574",
    "search_address": "4520 Holly Springs Pkwy Canton GA 30115",
    "state": "GA",
    "store_num": 70,
    "street": "4520 Holly Springs Pkwy",
    "zip": "30115"
  },
  {
    "area_code": "770",
    "city": "Snellville",
    "city_state_zip": "Snellville GA 30078",
    "location": {
      "lat": 33.88169,
      "lon": -84.01126
    },
    "name": "Snellville",
    "phone": "(770)982-6166",
    "search_address": "1670 Scenic Hwy N Snellville GA 30078",
    "state": "GA",
    "store_num": 71,
    "street": "1670 Scenic Hwy N",
    "zip": "30078"
  },
  {
    "area_code": "770",
    "city": "Suwanee",
    "city_state_zip": "Suwanee GA 30024",
    "location": {
      "lat": 34.00339,
      "lon": -84.07995
    },
    "name": "Suwanee",
    "phone": "(770)232-0998",
    "search_address": "1480 Satellite Blvd Suwanee GA 30024",
    "state": "GA",
    "store_num": 72,
    "street": "1480 Satellite Blvd",
    "zip": "30024"
  },
  {
    "area_code": "706",
    "city": "Thomaston",
    "city_state_zip": "Thomaston GA 30286",
    "location": {
      "lat": 32.92215,
      "lon": -84.33641
    },
    "name": "Thomaston",
    "phone": "(706)648-4800",
    "search_address": "1025 Hwy 19 North Thomaston GA 30286",
    "state": "GA",
    "store_num": 73,
    "street": "1025 Hwy 19 North",
    "zip": "30286"
  },
  {
    "area_code": "770",
    "city": "Atlanta",
    "city_state_zip": "Atlanta GA 30360",
    "location": {
      "lat": 33.92138,
      "lon": -84.27908
    },
    "name": "Tilly Mill",
    "phone": "(770)452-8858",
    "search_address": "4343 Tilly Mill Rd Atlanta GA 30360",
    "state": "GA",
    "store_num": 74,
    "street": "4343 Tilly Mill Rd",
    "zip": "30360"
  },
  {
    "area_code": "706",
    "city": "Toccoa",
    "city_state_zip": "Toccoa GA 30577",
    "location": {
      "lat": 34.54518,
      "lon": -83.28699
    },
    "name": "Toccoa,GA",
    "phone": "(706)886-5390",
    "search_address": "302 Memorial Drive Toccoa GA 30577",
    "state": "GA",
    "store_num": 75,
    "street": "302 Memorial Drive",
    "zip": "30577"
  },
  {
    "area_code": "770",
    "city": "Norcross",
    "city_state_zip": "Norcross GA 30093",
    "location": {
      "lat": 33.86862,
      "lon": -84.18999
    },
    "name": "Tucker",
    "phone": "(770)938-7819",
    "search_address": "4136 Jimmy Carter Blvd Norcross GA 30093",
    "state": "GA",
    "store_num": 76,
    "street": "4136 Jimmy Carter Blvd",
    "zip": "30093"
  },
  {
    "area_code": "229",
    "city": "Valdosta",
    "city_state_zip": "Valdosta GA 31601",
    "location": {
      "lat": 30.84464,
      "lon": -83.31579
    },
    "name": "Valdosta",
    "phone": "(229)293-9008",
    "search_address": "1825 Norman Dr Valdosta GA 31601",
    "state": "GA",
    "store_num": 77,
    "street": "1825 Norman Dr",
    "zip": "31601"
  },
  {
    "area_code": "770",
    "city": "Villa Rica",
    "city_state_zip": "Villa Rica GA 30180",
    "location": {
      "lat": 33.71985,
      "lon": -84.94202
    },
    "name": "Villa Rica",
    "phone": "(770)459-0456",
    "search_address": "210 Cooley Way Villa Rica GA 30180",
    "state": "GA",
    "store_num": 78,
    "street": "210 Cooley Way",
    "zip": "30180"
  },
  {
    "area_code": "478",
    "city": "Macon",
    "city_state_zip": "Macon GA 31206",
    "location": {
      "lat": 32.82267,
      "lon": -83.71343
    },
    "name": "W Macon",
    "phone": "(478)477-0266",
    "search_address": "4635 Presidential Pkwy Macon GA 31206",
    "state": "GA",
    "store_num": 79,
    "street": "4635 Presidential Pkwy",
    "zip": "31206"
  },
  {
    "area_code": "404",
    "city": "Decatur",
    "city_state_zip": "Decatur GA 30033",
    "location": {
      "lat": 33.81331,
      "lon": -84.26898
    },
    "name": "Wages Drive",
    "phone": "(404)315-0015",
    "search_address": "2295 Lawrenceville Hwy Decatur GA 30033",
    "state": "GA",
    "store_num": 80,
    "street": "2295 Lawrenceville Hwy",
    "zip": "30033"
  },
  {
    "area_code": "478",
    "city": "Warner Robins",
    "city_state_zip": "Warner Robins GA 31093",
    "location": {
      "lat": 32.61945,
      "lon": -83.66684
    },
    "name": "Warner Robins",
    "phone": "(478)923-4594",
    "search_address": "2620 Watson Blvd Warner Robins GA 31093",
    "state": "GA",
    "store_num": 81,
    "street": "2620 Watson Blvd",
    "zip": "31093"
  },
  {
    "area_code": "770",
    "city": "Decatur",
    "city_state_zip": "Decatur GA 30035",
    "location": {
      "lat": 33.71328,
      "lon": -84.21247
    },
    "name": "Wesley Chapel",
    "phone": "(770)981-4553",
    "search_address": "4325 New Snapfinger Wood Decatur GA 30035",
    "state": "GA",
    "store_num": 82,
    "street": "4325 New Snapfinger Wood",
    "zip": "30035"
  },
  {
    "area_code": "770",
    "city": "Marietta",
    "city_state_zip": "Marietta GA 30064",
    "location": {
      "lat": 33.94866,
      "lon": -84.61958
    },
    "name": "West Cobb",
    "phone": "(770)792-6858",
    "search_address": "2350 Dallas Hwy Marietta GA 30064",
    "state": "GA",
    "store_num": 83,
    "street": "2350 Dallas Hwy",
    "zip": "30064"
  },
  {
    "area_code": "678",
    "city": "Winder",
    "city_state_zip": "Winder GA 30680",
    "location": {
      "lat": 33.9481,
      "lon": -83.76283
    },
    "name": "Winder",
    "phone": "(678)425-0220",
    "search_address": "649 Carl Bethlehem Rd Winder GA 30680",
    "state": "GA",
    "store_num": 84,
    "street": "649 Carl Bethlehem Rd",
    "zip": "30680"
  },
  {
    "area_code": "770",
    "city": "Woodstock",
    "city_state_zip": "Woodstock GA 30189",
    "location": {
      "lat": 34.08658,
      "lon": -84.53834
    },
    "name": "Woodstock",
    "phone": "(770)591-8663",
    "search_address": "9037 Hwy 92, Suite 100 Woodstock GA 30189",
    "state": "GA",
    "store_num": 85,
    "street": "9037 Hwy 92, Suite 100",
    "zip": "30189"
  }
]